[
  {"city": "Milan", "lat": 45.4642, "lon": 9.19},
  {"city": "Rome", "lat": 41.9028, "lon": 12.4964},
  {"city": "Naples", "lat": 40.8518, "lon": 14.2681},
  {"city": "Florence", "lat": 43.7696, "lon": 11.2558},
  {"city": "Turin", "lat": 45.0703, "lon": 7.6869},
  {"city": "Bologna", "lat": 44.4949, "lon": 11.3426},
  {"city": "Venice", "lat": 45.4408, "lon": 12.3155},
  {"city": "Genoa", "lat": 44.4056, "lon": 8.9463},
  {"city": "Palermo", "lat": 38.1157, "lon": 13.3615},
  {"city": "Bari", "lat": 41.1171, "lon": 16.8719}
]
